Raised, Spent, IEFor, IEAgainst
$68625.71, $65326.73, 0.00, 0.00
Cash Contributions, Inkind Contributions, Anonymous, Personal, Loans, Miscellaneous, Small
$65145.00, $730.00, $30.00, $0.00, $0.00, $1603.52, $1401.00
Contributor, Date, Amount, P/G, City, State, Zip, Employer, Occupation
AEROSPACE FUTURE ALLIANCE, 2011-09-27, 800.00, P, KENT, WA, 98042, , 
GALLUCI'S, 2011-09-27, 800.00, P, LAKE TAPPS, WA, 98391, , 
HOLLAND AMERICA LINE, 2011-09-28, 800.00, P, SEATTLE, WA, 98119, , 
KEYCORP, 2011-11-26, 800.00, P, CLEVELAND, OH, 44114, , 
KROEKER ANNE, 2011-09-27, 800.00, P, BELLEVUE, WA, 98004, HOMEMAKER, HOMEMAKER
LANHAM LINDA, 2011-09-27, 800.00, P, KENT, WA, 98042, AEROSPACE FUTURES ALLIANCE, PRESIDENT
MARINE VIEW BEVERAGES, 2011-10-03, 800.00, P, POULSBO, WA, 98370, , 
MOLINA HEALTHCARE, 2011-09-27, 800.00, P, LONG BEACH, CA, 90802, , 
NELSON SCOTT, 2011-09-27, 800.00, P, OLYMPIA, WA, 98501, NEXUS, CONSULTANT
NISQUALLY INDIAN TRIBE, 2011-09-27, 800.00, P, OLYMPIA, WA, 98513, , 
NORTHWESTERN GENERAL DEVELOPMENT, 2011-11-26, 800.00, P, WAUNA, WA, 98395, , 
OVERTON DAVID, 2011-09-27, 800.00, P, TACOMA, WA, 98403, OVERTON & ASSOCIATES, NATURAL RESOURCES
PUGET SOUND ENERGY, 2011-09-27, 800.00, P, BELLEVUE, WA, 98501, , 
PUYALLUP TRIBE OF INDIANS, 2011-09-27, 800.00, P, TACOMA, WA, 98404, , 
RAI SERVICES CO, 2011-11-26, 800.00, P, WINSTON-SALEM, NC, 27102, , 
SHANBHAG DARSHANA, 2011-10-01, 800.00, P, BELLEVUE, WA, 98006, OVERLAKE INTERNAL MEDICINE, PHYSICIAN
SIMON HERB, 2011-09-27, 800.00, P, LAKEWOOD, WA, 98499, SIMON JOHNSON, INVESTOR
THE REGENCE GROUP, 2011-09-27, 800.00, P, PORTLAND, OR, 97207, , 
UAW REGION 5 WESTERN STATES, 2011-10-03, 800.00, P, PICO RIVERA, CA, 90660, , 
UNITED PILOTS PAC, 2011-09-27, 800.00, P, ROSEMONT, IL, 60018, , 
WA BEVERAGE ASSN, 2011-09-27, 800.00, P, OLYMPIA, WA, 98512, , 
WA CHIROPRACTIC TRUST, 2011-09-27, 800.00, P, PORT ORCHARD, WA, 98366, , 
WA MACHINIST COUNCIL, 2011-09-27, 800.00, P, SEATTLE, WA, 98108, , 
WA STATE DENTAL PAC, 2011-09-27, 800.00, P, SEATTLE, WA, 98107, , 
WAGLE DILIP, 2011-10-01, 800.00, P, BELLEVUE, WA, 98006, MCKINSEY & COMPANY, CONSULTANT
WHCA, 2011-09-27, 800.00, P, TUMWATER, WA, 98501, , 
WPT PAC, 2011-09-27, 800.00, P, OLYMPIA, WA, 98512, , 
MICROSOFT, 2011-09-27, 700.00, P, FARGO, ND, 58104, , 
BOYER VIOLET, 2011-09-28, 600.00, P, SEATTLE, WA, 98177, INDEPENDENT COLLEGES OF WA, PRESIDENT
ALLIANCE FOR WA ENTERTAINMENT, 2011-09-28, 500.00, P, CENTRAILIA, WA, 98351, , 
ANDERSON KARL, 2011-09-27, 500.00, P, TACOMA, WA, 98401, CONCRETE TECHNOLOGY, CEO
COYNER RICHARD, 2011-11-26, 500.00, P, GIG HARBOR, WA, 98335, SELF, DENTIST
CRAVES GERRI, 2011-09-27, 500.00, P, REDMOND, WA, 98052, RETIRED, RETIRED
CRAVES ROBERT, 2011-09-27, 500.00, P, REDMOND, WA, 98052, CSI, CEO
DRESSEL MELANIE, 2011-09-27, 500.00, P, GIG HARBOR, WA, 98329, COLUMBIA BANK, CEO
E & F RECOVERY, 2011-10-03, 500.00, P, GIG HARBOR, WA, 98335, , 
ENTERTAINMENT SOFTWARE ASSOCIATION, 2011-11-26, 500.00, P, WASHINGTON, DC, 20004, , 
FELTON KAREN, 2011-09-27, 500.00, P, SEATTLE, WA, 98121, RETIRED, RETIRED
FELTON ROBERT, 2011-09-27, 500.00, P, SEATTLE, WA, 98121, RETIRED, RETIRED
HDR ENGINEERING, 2011-09-27, 500.00, P, OMAHA, NE, 68114, , 
KERR-CHASTEK COLLEEN, 2011-09-28, 500.00, P, SEATTLE, WA, 98109, WASHINGTON STATE UNIVERSITY, ATTORNEY
KING JOE, 2011-09-27, 500.00, P, SEATTLE, WA, 98102, SELF, GOVERNMENT AFFAIRS
LOEB STEPHEN, 2011-09-27, 500.00, P, SEATTLE, WA, 98116, ALASKA DISTRIBUTORS, PRESIDENT
MACPAC, 2011-09-27, 500.00, P, OLYMPIA, WA, 98501, , 
MARR CHRIS, 2011-09-28, 500.00, P, SPOKANE, WA, 99203, WASHINGTON STATE LIQUOR CONTROL BOARD, BOARD MEMBER
NAIOP, 2011-09-27, 500.00, P, OLYMPIA, WA, 98506, , 
OLYMPIC RESOURCE MANAGEMENT, 2011-09-27, 500.00, P, POULSBO, WA, 98370, , 
PENINSULA SUBARU, 2011-09-27, 500.00, P, BREMERTON, WA, 98312, , 
PROGRESSIVE, 2011-09-27, 500.00, P, ASHLAND, OH, 44805, , 
STRATEGIES 360, 2011-09-27, 500.00, P, SEATTLE, WA, 98109, , 
TAYLOR WILLIAM, 2011-09-28, 500.00, P, OLYMPIA, WA, 98502, TAYLOR SHELLFISH, SHELFISH FARMER
TRUEBLUE INC. PAC, 2011-09-27, 500.00, P, TACOMA, WA, 98401, , 
UNITED SUBCONTRACTORS ASSOCIATION, 2011-09-27, 500.00, P, LAKEWOOD, WA, 98498, , 
VULCAN, 2011-09-27, 500.00, P, SEATTLE, WA, 98104, , 
WA CONSERVATION VOTERS, 2011-09-27, 500.00, P, SEATTLE, WA, 98111, , 
WA FOREST PROTECTION ASSOCIATION, 2011-09-27, 500.00, P, OLYMPIA, WA, 98501, , 
WA RESTAURANT ASSOCIATION, 2011-09-27, 500.00, P, OLYMPIA, WA, 98501, , 
WA WATER SERVICE, 2011-09-27, 500.00, P, GIG HARBOR, WA, 98335, , 
YAKIMA VALLEY GROWERS ASSOCIATION, 2011-10-03, 500.00, P, YAKIMA, WA, 98901, , 
CREDIT UNION LEGISLATIVE ACTION FUND, 2011-11-26, 400.00, P, FEDERAL WAY, WA, 98003, , 
MCKESSON, 2011-10-03, 400.00, P, CARROLTON, TX, 75006, , 
MCKINLEY CONNIE, 2011-09-27, 400.00, P, ARLINGTON, WA, 98223, VINE STREET GROUP, MANAGER
MCKINLEY J. BRENT, 2011-09-27, 400.00, P, ARLINGTON, WA, 98223, VINE STREET GROUP, CHAIRMAN 
PEMCO, 2011-09-28, 400.00, P, SEATTLE, WA, 98109, , 
PORT BLAKELY TREE FARM, 2011-09-27, 400.00, P, TUMWATER, WA, 98501, , 
PUBLIC SCHOOL EMPLOYEES, 2011-10-03, 400.00, P, AUBURN, WA, 98071, , 
SAVPAC, 2011-09-27, 400.00, P, OLYMPIA, WA, 98501, , 
UNIFIED GROCERS, 2011-10-03, 400.00, P, COMMERCE, CA, 90040, , 
BRISTOL-MYERS SQUIBB, 2011-11-26, 300.00, P, HOUSTON, TX, 77284, , 
WA COLLECTORS ASSOCIATION, 2011-11-26, 300.00, P, SPOKANE, WA, 99201, , 
WALGREN GORDON, 2011-09-27, 300.00, P, BREMERTON, WA, 98312, GORDON WALGRED CONSULTING, GOVERNMENT AFFAIRS
ARBAUGH & ASSOCIATES, 2011-09-27, 250.00, P, SHELTON, WA, 98584, , 
BARLINE JOHN DEANE, 2011-09-27, 250.00, P, TACOMA, WA, 98499, WILLIAMS KASTNER, ATTORNEY
BARLINE SALLY, 2011-09-27, 250.00, P, TACOMA, WA, 98499, HOMEMAKER, HOMEMAKER
BERNTSON PORTER & COMPANY, 2011-09-27, 250.00, P, BELLEVUE, WA, 98004, , 
BOGARD & JOHNSON, 2011-09-27, 250.00, P, OLYMPIA, WA, 98501, , 
CBWPAC, 2011-11-26, 250.00, P, LAKEWOOD, WA, 98498, , 
COYNE DANNY, 2011-09-28, 250.00, P, OLYMPIA, WA, 98502, COYNE JESERNIG LLC, CONSULTANT
COYNE DARCI, 2011-09-28, 250.00, P, OLYMPIA, WA, 98502, COYNE JESERNIG LLC, CONSULTANT
DURKAN MARTIN, 2011-09-27, 250.00, P, MAPLE VALLEY, WA, 98038, MARTIN J. DURKAN INC., CONSULTANT
ELI LILLY & COMPANY, 2011-11-26, 250.00, P, INDIANAPOLIS, IN, 46225, , 
ELLINGSON MARY, 2011-09-27, 250.00, P, GIG HARBOR, WA, 98335, HOMEMAKER, HOMEMAKER
ELLINGSON RICHARD, 2011-09-27, 250.00, P, GIG HARBOR, WA, 98335, BARGREEN ELLINGSON, VICE PRESIDENT
EVANS KELLY, 2011-09-28, 250.00, P, FEDERAL WAY, WA, 98003, SOUNDVIEW STRATEGIES, CONSULTANT
HECK DENNIS, 2011-09-27, 250.00, P, OLYMPIA, WA, 98501, RETIRED, RETIRED
HECK PAULA, 2011-09-27, 250.00, P, OLYMPIA, WA, 98501, RETIRED, RETIRED
HEDEEN & CADITZ PLLC, 2011-09-27, 250.00, P, SEATTLE, WA, 98101, , 
HEDRICK JIM, 2011-09-28, 250.00, P, RUSTON, WA, 98407, UNIVERSITY OF WASHINGTON , GOVERNMENT AFFAIRS
HENRY PHYLLIS, 2011-09-27, 250.00, P, GIG HARBOR, WA, 98329, COMMONWEALTH REPORTING, PRESIDENT
LAZOWSKA ED, 2011-09-27, 250.00, P, SEATTLE, WA, 98498, UNIVERSITY OF WASHINGTON, PROFESSOR
MCBRIDE PUBLIC AFFAIRS, 2011-09-27, 250.00, P, OLYMPIA, WA, 98501, , 
MEYERS BARBARA, 2011-09-27, 250.00, P, PORT ORCHARD, WA, 98367, OLYMPIC CASCADE, OWNER
MEYERS NOVE, 2011-09-27, 250.00, P, PORT ORCHARD, WA, 98367, OLYMPIC CASCADE, OWNER
NOTEWORLD, 2011-11-26, 250.00, P, TACOMA, WA, 98402, , 
NW CAREER COLLEGE FOUNDATION, 2011-09-27, 250.00, P, REDMOND, WA, 98052, , 
OSTERHOUT GLENN, 2011-09-27, 250.00, P, BELLEVUE, WA, 98004, SELF, FINANCIAL PLANNER
PERROW ELIZABETH, 2011-09-27, 250.00, P, GIG HARBOR, WA, 98335, WP CONSTRUCTION, ADMIN
PERROW WADE, 2011-09-27, 250.00, P, GIG HARBOR, WA, 98335, WP CONSTRUCTION, OWNER
PHIL WATKINS PUBLIC AFFAIRS, 2011-09-27, 250.00, P, OLYMPIA, WA, 98540, , 
REED DOUGLAS, 2011-09-27, 250.00, P, MEDINA, WA, 98039, SIMPSON LUMBER COMPANY, LUMBERMAN
SAVAGE RHONDA, 2011-09-27, 250.00, P, TACOMA, WA, 98466, SELF, DENTIST
SCHELLBERG TIMOTHY, 2011-11-26, 250.00, P, TACOMA, WA, 98401, GORDON THOMAS HONEYWELL, CONSULTANT
TAYLOR BRIAHNA, 2011-11-26, 250.00, P, TACOMA, WA, 98401, GORDON THOMAS HONEYWELL, CONSULTANT
THOMSEN LYNNE, 2011-09-27, 250.00, P, BELLEVUE, WA, 98009, HOMEMAKER, HOMEMAKER
THOMSEN MIKAL, 2011-09-27, 250.00, P, BELLEVUE, WA, 98009, SELF, INVESTOR
WA FIRE CHIEFS PAC, 2011-09-27, 250.00, P, OLYMPIA, WA, 98507, , 
WATRIN KERRY, 2011-09-28, 250.00, P, GIG HARBOR, WA, 98335, MULTICARE, PHYSICIAN
WELTER JOEL, 2011-07-27, 250.00, P, BREMERTON, WA, 98312, EVEREST COLLEGE, INSTRUCTOR
ZEHNDER CYNTHIA, 2011-11-26, 250.00, P, OLYMPIA, WA, 98003, GORDON THOMAS HONEYWELL, CONSULTANT
BALDWIN GERALD, 2011-09-27, 200.00, P, GIG HARBOR, WA, 98335, UNITED AIRLINES, PILOT
BALDWIN JOAN, 2011-09-27, 200.00, P, GIG HARBOR, WA, 98335, RETIRED, RETIRED
DOTY DYLAN, 2011-09-27, 200.00, P, SEATTLE, WA, 98117, SELF, GOVERNMENT AFFAIRS
EKBERG STEVEN, 2011-10-03, 200.00, P, GIG HARBOR, WA, 98335, PILKEY HOPPING & EKBERG, INSURANCE AGENT
ISAKSEN KATY, 2011-09-27, 200.00, P, SEATTLE, WA, 98117, KATY ISAKSEN & ASSOCIATES, CONSULTANT
KILMER DEANNA, 2011-09-27, 200.00, P, OLYMPIA, WA, 98501, OLYMPIA SCHOOL DISTRICT, TEACHER
KILMER JASON, 2011-09-27, 200.00, P, OLYMPIA, WA, 98501, UNIVERSITY OF WASHINGTON, PROFESSOR
SHEPHERD MARGARET, 2011-09-28, 200.00, P, TACOMA, WA, 98405, UNIVERSITY OF WASHINGTON, GOVERNMENT RELATIONS
WA APARTMENT ASSOCIATION, 2011-11-26, 200.00, P, OLYMPIA, WA, 98502, , 
WA ASSOCIATION OF VEHICLE SUBAGENTS, 2011-11-26, 200.00, P, BOTHELL, WA, 98041, , 
WA MORTGAGE LENDERS ASSN, 2011-09-27, 200.00, P, OLYMPIA, WA, 98507, , 
ELLIS MARGARET, 2011-11-26, 150.00, P, GIG HARBOR, WA, 98329, RETIRED, RETIRED
GARRATT FRANK, 2011-09-27, 150.00, P, VAUGHN, WA, 98394, RETIRED, RETIRED
HAYES TERRY, 2011-09-27, 150.00, P, TACOMA, WA, 98403, TACOMA GOODWILL, CEO
FIELD D. LEE, 2011-11-26, 125.00, P, GIG HARBOR, WA, 98335, SENIOR SERVICES OF AMERICA, PRESIDENT
FIELD MARY, 2011-11-26, 125.00, P, GIG HARBOR, WA, 98335, RETIRED, RETIRED
GANO KATHLEEN, 2011-09-27, 125.00, P, LAKEWOOD, WA, 98496, GANO & ASSOCIATES, GOVERNMENT AFFAIRS
GANO STEVEN, 2011-09-27, 125.00, P, LAKEWOOD, WA, 98496, GANO & ASSOCIATES, GOVERNMENT AFFAIRS
MARTZ BERNARD, 2011-09-27, 125.00, P, GIG HARBOR, WA, 98335, RETIRED, RETIRED
MERLIN ADVOCATES, 2011-09-27, 125.00, P, OLYMPIA, WA, 98501, , 
SELLS BARBARA, 2011-09-27, 125.00, P, GIG HARBOR, WA, 98335, RETIRED, RETIRED
SELLS JAMES, 2011-09-27, 125.00, P, GIG HARBOR, WA, 98335, RETIRED, RETIRED
STEWART JAY RANDOLPH, 2011-09-27, 125.00, P, SEATTLE, WA, 98199, PORT OF TACOMA, REAL ESTATE MANAGER
ALDRICH ALLEN, 2011-09-27, 100.00, P, SNOHOMISH, WA, 98296, , 
ARBOGAST JUDY, 2011-09-27, 100.00, P, OLALLA, WA, 98359, , 
BAKAMIS GREG, 2011-09-27, 100.00, P, LAKEWOOD, WA, 98499, , 
BEREBITSKY LARRY, 2011-09-27, 100.00, P, PORT ORCHARD, WA, 98366, , 
BLISS ERIKA, 2011-09-27, 100.00, P, KIRKLAND, WA, 98033, , 
CARTER AMBER, 2011-09-27, 100.00, P, OLYMPIA, WA, 98506, , 
DOUBLEDAY MICHAEL, 2011-09-27, 100.00, P, SHORELINE, WA, 98177, , 
FABRE VICKI, 2011-09-27, 100.00, P, TUKWILA, WA, 98188, , 
FRIEDES JOSHUA, 2011-09-27, 100.00, P, SEATTLE, WA, 98116, , 
GARRETT MARCIA, 2011-09-27, 100.00, P, TACOMA, WA, 98407, , 
GLEIN GARY, 2011-09-27, 100.00, P, GIG HARBOR, WA, 98332, , 
GOMBOSKY PUBLIC AFFAIRS, 2011-09-27, 100.00, P, OLYMPIA, WA, 98501, , 
HARBOR PHYSICAL THERAPY, 2011-09-27, 100.00, P, GIG HARBOR, WA, 98335, , 
HARRINGTON JAMES W, 2011-09-27, 100.00, P, SEATTLE, WA, 98199, , 
HO ROXANNE, 2011-09-27, 100.00, P, UNIVERSITY PLACE, WA, 98466, , 
HODGINS RANDY, 2011-09-27, 100.00, P, SEATTLE, WA, 98105, , 
KINCL JOHN, 2011-09-27, 100.00, P, PORT ORCHARD, WA, 98367, , 
L 80 LLC, 2011-09-27, 100.00, P, GIG HARBOR, WA, 98332, , 
LADENBURG CONNIE, 2011-09-27, 100.00, P, TACOMA, WA, 98408, , 
LOCAL 44 SEGREGATED FUND, 2011-11-26, 100.00, P, SPOKANE, WA, 99202, , 
MARTIN FLYNN PUBLIC AFFAIRS, 2011-09-27, 100.00, P, OLYMPIA, WA, 98501, , 
MCCALLON DARRON, 2011-09-27, 100.00, P, GIG HARBOR, WA, 98335, , 
MCCARTHY PAT, 2011-09-27, 100.00, P, TACOMA, WA, 98422, , 
MILLER FRANK, 2011-09-27, 100.00, P, GIG HARBOR, WA, 98335, , 
ODOM STEVEN E, 2011-07-26, 100.00, P, GIG HARBOR, WA, 98335, , 
PATRICK DUNN & ASSOCIATES, 2011-09-27, 100.00, P, SEATTLE, WA, 98177, , 
PEREZ-GIBSON MIGUEL, 2011-09-27, 100.00, P, OLYMPIA, WA, 98507, , 
POWERS RON, 2011-09-27, 100.00, P, GIG HARBOR, WA, 98329, , 
RICHARDS JAMES, 2011-09-27, 100.00, P, UNIVERSITY PLACE, WA, 98467, , 
ROBERTS RONALD, 2011-09-27, 100.00, P, GIG HARBOR, WA, 98332, , 
ROBINSON WILLIAM, 2011-09-27, 100.00, P, OLYMPIA, WA, 98501, , 
RYHERD MAJKEN, 2011-09-27, 100.00, P, UNIVERSITY PLACE, WA, 98467, , 
SAN SOUCI MARK, 2011-09-27, 100.00, P, LAKEWOOD, WA, 98498, , 
SHEPHERD JOHN, 2011-09-27, 100.00, P, TACOMA, WA, 98405, , 
SIGMON SCOTT, 2011-09-27, 100.00, P, OLYMPIA, WA, 98512, , 
STEUERWALT MATT, 2011-09-27, 100.00, P, SEATTLE, WA, 98118, , 
TELLEFSON CARRIE, 2011-09-27, 100.00, P, GIG HARBOR, WA, 98335, , 
THATCHER LISA, 2011-11-16, 100.00, P, TACOMA, WA, 98403, , 
TRAISMAN CLIFFORD, 2011-09-27, 100.00, P, SEATTLE, WA, 98105, , 
VAARVIK CRYSTAL, 2011-09-27, 100.00, P, GIG HARBOR, WA, 98322, , 
VANBERG JEAN, 2011-09-27, 100.00, P, GIG HARBOR, WA, 98332, , 
VANBERG RICHARD, 2011-09-27, 100.00, P, GIG HARBOR, WA, 98332, , 
WELTER JOEL, 2011-09-27, 100.00, P, BREMERTON, WA, 98312, EVEREST COLLEGE, INSTRUCTOR
JOHNSON DONALD, 2011-09-27, 75.00, P, EDGEWOOD, WA, 98371, , 
JOHNSON MARY, 2011-09-27, 75.00, P, EDGEWOOD, WA, 98371, , 
MILES WENDY, 2011-09-27, 75.00, P, BREMERTON, WA, 98312, , 
MITCHELL DAVID, 2011-09-27, 75.00, P, POULSBO, WA, 98370, , 
MITCHELL PATTI, 2011-09-27, 75.00, P, POULSBO, WA, 98370, , 
RAWLINGS-SMITH KERI, 2011-09-27, 75.00, P, UNIVERSITY PLACE, WA, 98467, , 
WOLFE EDWARD, 2011-09-27, 75.00, P, BREMERTON, WA, 98312, , 
ODOM ELAINE, 2011-09-27, 62.50, P, GIG HARBOR, WA, 98335, , HOMEMAKER
ODOM ELAINE, 2011-09-27, 62.50, P, GIG HARBOR, WA, 98335, , HOMEMAKER
ODOM STEVEN E, 2011-09-27, 62.50, P, GIG HARBOR, WA, 98335, BOEING, ENGINEER
ODOM STEVEN E, 2011-09-27, 62.50, P, GIG HARBOR, WA, 98335, BOEING, ENGINEER
ALFONSO APRIL, 2011-09-27, 50.00, P, TACOMA, WA, 98407, , 
ALFONSO JEFFREY, 2011-09-27, 50.00, P, TACOMA, WA, 98407, , 
ARAYA ISAAC, 2011-09-27, 50.00, P, SEATTLE, WA, 98108, , 
ARKANS NORMAN, 2011-09-27, 50.00, P, SEATTLE, WA, 98112, , 
ARKANS RAIMONDA, 2011-09-27, 50.00, P, SEATTLE, WA, 98112, , 
BARNETT JULIE, 2011-09-27, 50.00, P, GIG HARBOR, WA, 98335, , 
BERENDT ELIZABETH, 2011-09-27, 50.00, P, OLYMPIA, WA, 98501, , 
BERENDT PAUL, 2011-09-27, 50.00, P, OLYMPIA, WA, 98501, , 
BOSCH GAIL, 2011-09-27, 50.00, P, BREMERTON, WA, 98310, , 
BOSCH SCOTT, 2011-09-27, 50.00, P, BREMERTON, WA, 98310, , 
BROWN ELAINE, 2011-09-27, 50.00, P, ALLEN, WA, 98524, , 
BROWN MICHAEL, 2011-09-27, 50.00, P, ALLEN, WA, 98524, , 
CARMACK INGA, 2011-09-27, 50.00, P, PORT ORCHARD, WA, 98366, , 
CHIECHI & ASSOCIATES, 2011-09-27, 50.00, P, TUMWATER, WA, 98512, , 
CONNOR MICHELLE, 2011-09-27, 50.00, P, SEATTLE, WA, 98105, , 
DAVIS-HAYFIELD KATHY, 2011-09-27, 50.00, P, GIG HARBOR, WA, 98335, , 
DEANE ROBERT JOHN, 2011-09-27, 50.00, P, SEATTLE, WA, 98121, , 
DUVERNOY CAROLYN, 2011-09-27, 50.00, P, SEATTLE, WA, 98112, , 
DUVERNOY EUGENE, 2011-09-27, 50.00, P, SEATTLE, WA, 98112, , 
EYER LAURITZ, 2011-09-27, 50.00, P, BREMERTON, WA, 98312, , 
EYER MARY, 2011-09-27, 50.00, P, BREMERTON, WA, 98312, , 
FRAZER PATRICIA, 2011-09-27, 50.00, P, GIG HARBOR, WA, 98332, , 
FRAZER THOMAS, 2011-09-27, 50.00, P, GIG HARBOR, WA, 98332, , 
GARRISON PEG, 2011-09-27, 50.00, P, FEDERAL WAY, WA, 98345, , 
GORMLEY JOANNA, 2011-09-27, 50.00, P, VAUGHN, WA, 98394, , 
GREGG ELLIOTT, 2011-09-27, 50.00, P, BREMERTON, WA, 98312, , 
GREGG MAUREEN, 2011-09-27, 50.00, P, BREMERTON, WA, 98312, , 
GREGORICH CHRIS, 2011-09-27, 50.00, P, SEATTLE, WA, 98102, , 
GROVER STUART, 2011-09-27, 50.00, P, TACOMA, WA, 98465, , 
HANSEN MARILEE, 2011-09-27, 50.00, P, BREMERTON, WA, 98311, , 
HARVEY WILLIAM, 2011-09-27, 50.00, P, BREMERTON, WA, 98312, , 
HINCKLEY ARLINE, 2011-09-27, 50.00, P, SEATTLE, WA, 98115, , 
HINCKLEY THOMAS, 2011-09-27, 50.00, P, SEATTLE, WA, 98115, , 
KENNEY G. JAMES, 2011-09-27, 50.00, P, GIG HARBOR, WA, 98335, , 
KENNEY MARY, 2011-09-27, 50.00, P, GIG HARBOR, WA, 98335, , 
KNOPP LAWRENCE, 2011-09-27, 50.00, P, SEATTLE, WA, 98122, , 
KRAMP STEPHEN, 2011-09-27, 50.00, P, GIG HARBOR, WA, 98335, , 
LUCIEN DAWN, 2011-09-27, 50.00, P, TACOMA, WA, 98403, , 
MAGID LINDA, 2011-09-27, 50.00, P, GIG HARBOR, WA, 98335, , 
MAGID RONALD, 2011-09-27, 50.00, P, GIG HARBOR, WA, 98335, , 
MALICH BARBARA, 2011-09-27, 50.00, P, GIG HARBOR, WA, 98332, , 
MALICH KENNETH, 2011-09-27, 50.00, P, GIG HARBOR, WA, 98332, , 
MANDELL DIANA, 2011-09-27, 50.00, P, BELLEVUE, WA, 98004, , 
MAY ANGELA, 2011-09-27, 50.00, P, FOX ISLAND, WA, 98333, , 
MILLER ISAR, 2011-09-27, 50.00, P, GIG HARBOR, WA, 98335, , 
MILLER PRITCHARD, 2011-09-27, 50.00, P, GIG HARBOR, WA, 98329, , 
MONROE JOANNA, 2011-09-27, 50.00, P, FIRCREST , WA, 98466, , 
MONROE PAUL, 2011-09-27, 50.00, P, FIRCREST , WA, 98466, , 
NAYLOR MARILYN, 2011-09-27, 50.00, P, GIG HARBOR, WA, 98335, , 
NERIN WILLIAM, 2011-09-27, 50.00, P, GIG HARBOR, WA, 98332, , 
OLDENBURG RICHARD, 2011-09-27, 50.00, P, GIG HARBOR, WA, 98335, , 
OUTCOMES BY LEVY, 2011-11-26, 50.00, P, KENMORE, WA, 98028, , 
POLITEO LISA, 2011-09-27, 50.00, P, TACOMA, WA, 98407, , 
POLITEO MIKE, 2011-09-27, 50.00, P, TACOMA, WA, 98407, , 
PURBAUGH JOHN, 2011-09-27, 50.00, P, GIG HARBOR, WA, 98335, , 
RALSTON TJ, 2011-09-27, 50.00, P, VAUGHN, WA, 98394, , 
RICHARD LITTLE CONSULTING, 2011-11-26, 50.00, P, BELLINGHAM, WA, 98225, , 
SANDSTROM CATHERINE, 2011-09-27, 50.00, P, UNIVERSITY PLACE, WA, 98466, , 
SANDSTROM HENRY, 2011-09-27, 50.00, P, UNIVERSITY PLACE, WA, 98466, , 
SMITH DOUG, 2011-09-27, 50.00, P, GIG HARBOR, WA, 98332, , 
SMITH RESA, 2011-09-27, 50.00, P, GIG HARBOR, WA, 98332, , 
STEELE RUSSELL C, 2011-09-27, 50.00, P, SUQUAMISH, WA, 98392, , 
SUKUT LARRY, 2011-09-27, 50.00, P, PORT ORCHARD, WA, 98366, , 
TAPPERO JULIE, 2011-09-27, 50.00, P, GIG HARBOR, WA, 98332, , 
TESFAI HAREGU, 2011-09-27, 50.00, P, SEATTLE, WA, 98108, , 
THORPE SARAH, 2011-09-27, 50.00, P, GIG HARBOR, WA, 98335, , 
TRANSUE PAMELA, 2011-09-27, 50.00, P, TACOMA, WA, 98465, , 
TRIPP BARBARA, 2011-09-27, 50.00, P, GIG HARBOR, WA, 98335, , 
TRIPP SPENCER, 2011-09-27, 50.00, P, GIG HARBOR, WA, 98335, , 
VELORIA VELMA, 2011-09-27, 50.00, P, SEATTLE, WA, 98108, , 
WALDO ANN, 2011-11-26, 50.00, P, LAKEBAY, WA, 98349, , 
WELLS ISAAC, 2011-09-27, 50.00, P, KIRKLAND, WA, 98033, , 
WELLS LAURA HELEN, 2011-09-27, 50.00, P, SEATTLE, WA, 98105, , 
WILLIAMS PEYTON CHARLENE, 2011-11-26, 50.00, P, GIG HARBOR, WA, 98335, , 
WILLIAMSON GARY, 2011-09-27, 50.00, P, GIG HARBOR, WA, 98335, , 
WILLIAMSON ROSALIE, 2011-09-27, 50.00, P, GIG HARBOR, WA, 98335, , 
WOLFE DEBORAH, 2011-09-27, 50.00, P, PUYALLUP, WA, 98374, , 
WOLFE JOHN, 2011-09-27, 50.00, P, PUYALLUP, WA, 98374, , 
YAMAMOTO REID, 2011-09-27, 50.00, P, SEATTLE, WA, 98105, , 
THOMAS MAURICE, 2011-09-27, 45.00, P, PORT ORCHARD, WA, 98367, , 
THOMAS MAURICE, 2011-09-27, 45.00, P, PORT ORCHARD, WA, 98367, , 
OLSON CARL, 2011-09-27, 40.00, P, PORT ORCHARD, WA, 98366, , 
PATRICK RYAN, 2011-09-27, 40.00, P, SEATTLE, WA, 98103, , 
SEABROOK DAVID, 2011-09-27, 37.50, P, TACOMA, WA, 98411, , 
SEABROOK VERGIA, 2011-09-27, 37.50, P, TACOMA, WA, 98411, , 
HUDDLESTONE NAOMI, 2011-11-26, 25.00, P, GIG HARBOR, WA, 98335, , 
KELLER LARRY, 2011-11-26, 25.00, P, SUQUAMISH, WA, 98392, , 
KELLER PAM, 2011-11-26, 25.00, P, SUQUAMISH, WA, 98392, , 
KROTZ PAMELA, 2011-11-26, 25.00, P, GIG HARBOR, WA, 98335, , 
KROTZ ROBERT, 2011-11-26, 25.00, P, GIG HARBOR, WA, 98335, , 
CASS JUDITH, 2011-11-26, 12.50, P, PORT ORCHARD, WA, 98366, , 
CASS L.E., 2011-11-26, 12.50, P, PORT ORCHARD, WA, 98366, , 
ODOM ELAINE, 2011-11-26, 12.50, P, GIG HARBOR, WA, 98335, , HOMEMAKER
ODOM ELAINE, 2011-11-26, 12.50, P, GIG HARBOR, WA, 98335, , HOMEMAKER
ODOM STEVEN E, 2011-11-26, 12.50, P, GIG HARBOR, WA, 98335, BOEING, ENGINEER
ODOM STEVEN E, 2011-11-26, 12.50, P, GIG HARBOR, WA, 98335, BOEING, ENGINEER
